{"data":[{"0":{"id":1361,"name":"CINEBANK","is_web":false,"address":"52 avenue Faidherbe","zipcode":"02100","latitude":"49.843639","longitude":"3.278779","brand":{"id":5,"name":"CINEBANK","thumb":{"square60":"http:\/\/promocityzen.com\/media\/cache\/square60\/uploads\/logos\/Logo_cinebank.jpg","square120":"http:\/\/promocityzen.com\/media\/cache\/square120\/uploads\/logos\/Logo_cinebank.jpg"}},"city":{"id":30437,"name":"Saint-Quentin"},"coupons":[{"id":747}]},"distance":"2.09293116893595"},{"0":{"id":2198,"name":"TCHIP","is_web":false,"address":"91 rue Emile Zola","zipcode":"02100","latitude":"49.845421","longitude":"3.283102","brand":{"id":19,"name":"TCHIP","thumb":{"square60":"http:\/\/promocityzen.com\/media\/cache\/square60\/uploads\/logos\/Logo_tchip.jpg","square120":"http:\/\/promocityzen.com\/media\/cache\/square120\/uploads\/logos\/Logo_tchip.jpg"}},"city":{"id":30437,"name":"Saint-Quentin"},"coupons":[{"id":1953}]},"distance":"2.29843078993702"},{"0":{"id":5804,"name":"Beauty Success","is_web":false,"url":"http:\/\/www.beautysuccess.fr\/","address":"50 route de guise","zipcode":"02100","latitude":"49.840005","longitude":"3.303551","brand":{"id":4400,"name":"Beauty Sucess","thumb":{"square60":"http:\/\/promocityzen.com\/media\/cache\/square60\/uploads\/logos\/beau.png","square120":"http:\/\/promocityzen.com\/media\/cache\/square120\/uploads\/logos\/beau.png"}},"city":{"id":30437,"name":"Saint-Quentin"},"coupons":[{"id":7425}]},"distance":"2.37880631362421"},{"0":{"id":1745,"name":"NAF NAF","is_web":false,"address":"8\/10 rue des Toiles","zipcode":"02100","latitude":"49.846622","longitude":"3.288849","brand":{"id":11,"name":"NAF NAF","thumb":{"square60":"http:\/\/promocityzen.com\/media\/cache\/square60\/uploads\/logos\/3462-1322836756.jpg","square120":"http:\/\/promocityzen.com\/media\/cache\/square120\/uploads\/logos\/3462-1322836756.jpg"}},"city":{"id":30437,"name":"Saint-Quentin"},"coupons":[{"id":1503}]},"distance":"2.50113224691855"},{"0":{"id":125,"name":"B&B HOTELS","is_web":false,"address":"ZAC de la Vall\u00e9e rue A. Parmentier","zipcode":"02100","latitude":"49.847065","longitude":"3.287400","brand":{"id":1,"name":"B&B HOTELS","thumb":{"square60":"http:\/\/promocityzen.com\/media\/cache\/square60\/uploads\/logos\/Logo_b%26b.jpg","square120":"http:\/\/promocityzen.com\/media\/cache\/square120\/uploads\/logos\/Logo_b%26b.jpg"}},"city":{"id":30437,"name":"Saint-Quentin"},"coupons":[{"id":1}]},"distance":"2.52547132908443"},{"0":{"id":2199,"name":"TCHIP","is_web":false,"address":"22 bd Henri Martin","zipcode":"02100","latitude":"49.847630","longitude":"3.279547","brand":{"id":19,"name":"TCHIP","thumb":{"square60":"http:\/\/promocityzen.com\/media\/cache\/square60\/uploads\/logos\/Logo_tchip.jpg","square120":"http:\/\/promocityzen.com\/media\/cache\/square120\/uploads\/logos\/Logo_tchip.jpg"}},"city":{"id":30437,"name":"Saint-Quentin"},"coupons":[{"id":1953}]},"distance":"2.5347252747091"},{"0":{"id":1925,"name":"SPEED BURGER","is_web":false,"address":"66 bis rue De Vermand","zipcode":"02100","latitude":"49.849678","longitude":"3.273575","brand":{"id":17,"name":"SPEED BURGER","thumb":{"square60":"http:\/\/promocityzen.com\/media\/cache\/square60\/uploads\/logos\/Logo_speedburger.jpg","square120":"http:\/\/promocityzen.com\/media\/cache\/square120\/uploads\/logos\/Logo_speedburger.jpg"}},"city":{"id":30437,"name":"Saint-Quentin"},"coupons":[{"id":1908}]},"distance":"2.802138077312"},{"0":{"id":2056,"name":"TCHIP","is_web":false,"address":"11 rue Notre Dame","zipcode":"80400","latitude":"49.748756","longitude":"3.071930","brand":{"id":19,"name":"TCHIP","thumb":{"square60":"http:\/\/promocityzen.com\/media\/cache\/square60\/uploads\/logos\/Logo_tchip.jpg","square120":"http:\/\/promocityzen.com\/media\/cache\/square120\/uploads\/logos\/Logo_tchip.jpg"}},"city":{"id":32220,"name":"Ham"},"coupons":[{"id":1953}]},"distance":"17.1759963312562"},{"0":{"id":991,"name":"CINEBANK","is_web":false,"address":"31 rue du General Foy","zipcode":"80400","latitude":"49.746571","longitude":"3.072370","brand":{"id":5,"name":"CINEBANK","thumb":{"square60":"http:\/\/promocityzen.com\/media\/cache\/square60\/uploads\/logos\/Logo_cinebank.jpg","square120":"http:\/\/promocityzen.com\/media\/cache\/square120\/uploads\/logos\/Logo_cinebank.jpg"}},"city":{"id":32220,"name":"Ham"},"coupons":[{"id":747}]},"distance":"17.2699444423487"},{"0":{"id":2220,"name":"TCHIP","is_web":false,"address":"87 rue Gambetta","zipcode":"02700","latitude":"49.653156","longitude":"3.289736","brand":{"id":19,"name":"TCHIP","thumb":{"square60":"http:\/\/promocityzen.com\/media\/cache\/square60\/uploads\/logos\/Logo_tchip.jpg","square120":"http:\/\/promocityzen.com\/media\/cache\/square120\/uploads\/logos\/Logo_tchip.jpg"}},"city":{"id":30372,"name":"Tergnier"},"coupons":[{"id":1953}]},"distance":"19.1015361762523"},{"0":{"id":2055,"name":"TCHIP","is_web":false,"address":"220 rue camille Desmoulins","zipcode":"02120","latitude":"49.899467","longitude":"3.627293","brand":{"id":19,"name":"TCHIP","thumb":{"square60":"http:\/\/promocityzen.com\/media\/cache\/square60\/uploads\/logos\/Logo_tchip.jpg","square120":"http:\/\/promocityzen.com\/media\/cache\/square120\/uploads\/logos\/Logo_tchip.jpg"}},"city":{"id":30676,"name":"Guise"},"coupons":[{"id":1953}]},"distance":"26.2283421534797"},{"0":{"id":2164,"name":"TCHIP","is_web":false,"address":"16 rue Saint Fursy","zipcode":"80200","latitude":"49.928265","longitude":"2.933328","brand":{"id":19,"name":"TCHIP","thumb":{"square60":"http:\/\/promocityzen.com\/media\/cache\/square60\/uploads\/logos\/Logo_tchip.jpg","square120":"http:\/\/promocityzen.com\/media\/cache\/square120\/uploads\/logos\/Logo_tchip.jpg"}},"city":{"id":32272,"name":"P\u00e9ronne"},"coupons":[{"id":1953}]},"distance":"27.3839110853366"},{"0":{"id":3150,"name":"TWINNER","is_web":false,"address":"ZAC du Mont St Quentin","zipcode":"80200","latitude":"49.945580","longitude":"2.934268","brand":{"id":255,"name":"TWINNER","thumb":{"square60":"http:\/\/promocityzen.com\/media\/cache\/square60\/uploads\/logos\/Logo_twinner.jpg","square120":"http:\/\/promocityzen.com\/media\/cache\/square120\/uploads\/logos\/Logo_twinner.jpg"}},"city":{"id":32272,"name":"P\u00e9ronne"},"coupons":[{"id":2792}]},"distance":"28.1833714772741"},{"0":{"id":2140,"name":"TCHIP","is_web":false,"address":"7 Place Cordouen","zipcode":"60400","latitude":"49.581127","longitude":"2.998661","brand":{"id":19,"name":"TCHIP","thumb":{"square60":"http:\/\/promocityzen.com\/media\/cache\/square60\/uploads\/logos\/Logo_tchip.jpg","square120":"http:\/\/promocityzen.com\/media\/cache\/square120\/uploads\/logos\/Logo_tchip.jpg"}},"city":{"id":31298,"name":"Noyon"},"coupons":[{"id":1953}]},"distance":"33.8242876723556"},{"0":{"id":887,"name":"CINEBANK","is_web":false,"address":"30 bd Jean Jaures","zipcode":"59540","latitude":"50.121773","longitude":"3.404913","brand":{"id":5,"name":"CINEBANK","thumb":{"square60":"http:\/\/promocityzen.com\/media\/cache\/square60\/uploads\/logos\/Logo_cinebank.jpg","square120":"http:\/\/promocityzen.com\/media\/cache\/square120\/uploads\/logos\/Logo_cinebank.jpg"}},"city":{"id":27074,"name":"Caudry"},"coupons":[{"id":747}]},"distance":"34.2002289515946"},{"0":{"id":2007,"name":"TCHIP","is_web":false,"address":"19 rue Roger Salengro","zipcode":"59540","latitude":"50.124031","longitude":"3.408980","brand":{"id":19,"name":"TCHIP","thumb":{"square60":"http:\/\/promocityzen.com\/media\/cache\/square60\/uploads\/logos\/Logo_tchip.jpg","square120":"http:\/\/promocityzen.com\/media\/cache\/square120\/uploads\/logos\/Logo_tchip.jpg"}},"city":{"id":27074,"name":"Caudry"},"coupons":[{"id":1953}]},"distance":"34.5190803240984"},{"0":{"id":5978,"name":"Beauty Success","is_web":false,"url":"http:\/\/www.beautysuccess.fr\/","address":"Boulevard 8 mai 1945","zipcode":"59540","latitude":"50.126380","longitude":"3.423055","brand":{"id":4400,"name":"Beauty Sucess","thumb":{"square60":"http:\/\/promocityzen.com\/media\/cache\/square60\/uploads\/logos\/beau.png","square120":"http:\/\/promocityzen.com\/media\/cache\/square120\/uploads\/logos\/beau.png"}},"city":{"id":27059,"name":"B\u00e9thencourt"},"coupons":[{"id":7425}]},"distance":"35.0508750268368"},{"0":{"id":3594,"name":"ADA","is_web":false,"address":"27 boulevard Gras Brancourt","zipcode":"02000","latitude":"49.570339","longitude":"3.627207","brand":{"id":1057,"name":"ADA","thumb":{"square60":"http:\/\/promocityzen.com\/media\/cache\/square60\/uploads\/logos\/65-1304509804.jpg","square120":"http:\/\/promocityzen.com\/media\/cache\/square120\/uploads\/logos\/65-1304509804.jpg"}},"city":{"id":30238,"name":"Laon"},"coupons":[{"id":4824}]},"distance":"37.7322619215479"},{"0":{"id":3595,"name":"ADA","is_web":false,"address":"7 bis quai Gayant","zipcode":"02100","latitude":"49.564133","longitude":"3.619890","brand":{"id":1057,"name":"ADA","thumb":{"square60":"http:\/\/promocityzen.com\/media\/cache\/square60\/uploads\/logos\/65-1304509804.jpg","square120":"http:\/\/promocityzen.com\/media\/cache\/square120\/uploads\/logos\/65-1304509804.jpg"}},"city":{"id":30238,"name":"Laon"},"coupons":[{"id":4824}]},"distance":"37.912222871446"},{"0":{"id":2003,"name":"TCHIP","is_web":false,"address":"37 avenue de la Victoire","zipcode":"59400","latitude":"50.173092","longitude":"3.232861","brand":{"id":19,"name":"TCHIP","thumb":{"square60":"http:\/\/promocityzen.com\/media\/cache\/square60\/uploads\/logos\/Logo_tchip.jpg","square120":"http:\/\/promocityzen.com\/media\/cache\/square120\/uploads\/logos\/Logo_tchip.jpg"}},"city":{"id":27027,"name":"Cambrai"},"coupons":[{"id":1953}]},"distance":"38.8696123469088"}],"current_page":1,"total_page":260,"total_item":5187}